[
    {
        "_id": "5c66f2e6e4b9d95080b3dee2",
        "name": "5th Avenue cafe มหาสารคาม",
        "category": "Food & Drink",
        "address": {
            "address": "131/7 ถนนเฉลิมพระเกียรติ ร9 ตำบลตลาด อำเภอเมือง เทศบาลเมืองมหาสารคาม",
            "province": "Maha Sarakham",
            "district": "Mueang Maha Sarakham"
        },
        "location": {
            "lat": 16.1901757,
            "lng": 103.287906
        },
        "rating": {
            "count": 0,
            "sum": 0
        },
        "images": [
            "1550250726729.jpg",
            "1550250726765.jpg",
            "1550250726767.jpg",
            "1550250726808.jpg"
        ]
    },
    {
        "_id": "5c3dda267963f82c6f5e79a1",
        "name": "Dino Khon Kaen  :  ไดโน่ ขอนแก่น ",
        "category": "Appliance",
        "address": {
            "address": "บริษัท ขอนแก่น ไมซ์ แมเนจเม้นท์ จำกัด 99 หมู่ 20 ต.บ้านเป็ด ",
            "province": "Khon Kaen",
            "district": "Mueang Khon Kaen"
        },
        "location": {
            "lat": 16.46026342472845,
            "lng": 102.78665343072316
        },
        "rating": {
            "count": 0,
            "sum": 0
        },
        "images": [
            "1547557412335.jpg",
            "1547557412427.jpg",
            "1547557412858.jpg",
            "1547557413197.jpg",
            "1547557413367.jpg",
            "1547557413538.jpg",
            "1547557413754.jpg",
            "1547557596901.jpg",
            "1547557597473.jpg",
            "1547557597848.jpg",
            "1547557598183.jpg",
            "1547557598443.jpg"
        ]
    },
    {
        "_id": "6",
        "name": "5th Avenue cafe มหาสารคาม",
        "category": "Food & Drink",
        "address": {
            "address": "131/7 ถนนเฉลิมพระเกียรติ ร9 ตำบลตลาด อำเภอเมือง เทศบาลเมืองมหาสารคาม",
            "province": "Maha Sarakham",
            "district": "Mueang Maha Sarakham"
        },
        "location": {
            "lat": 16.1901757,
            "lng": 103.287906
        },
        "rating": {
            "count": 0,
            "sum": 0
        },
        "images": [
            "1550250726729.jpg",
            "1550250726765.jpg",
            "1550250726767.jpg",
            "1550250726808.jpg"
        ]
    },
    {
        "_id": "7",
        "name": "5th Avenue cafe มหาสารคาม",
        "category": "Food & Drink",
        "address": {
            "address": "131/7 ถนนเฉลิมพระเกียรติ ร9 ตำบลตลาด อำเภอเมือง เทศบาลเมืองมหาสารคาม",
            "province": "Maha Sarakham",
            "district": "Mueang Maha Sarakham"
        },
        "location": {
            "lat": 16.1901757,
            "lng": 103.287906
        },
        "rating": {
            "count": 0,
            "sum": 0
        },
        "images": [
            "1550250726729.jpg",
            "1550250726765.jpg",
            "1550250726767.jpg",
            "1550250726808.jpg"
        ]
    },
    {
        "_id": "8",
        "name": "5th Avenue cafe มหาสารคาม",
        "category": "Food & Drink",
        "address": {
            "address": "131/7 ถนนเฉลิมพระเกียรติ ร9 ตำบลตลาด อำเภอเมือง เทศบาลเมืองมหาสารคาม",
            "province": "Maha Sarakham",
            "district": "Mueang Maha Sarakham"
        },
        "location": {
            "lat": 16.1901757,
            "lng": 103.287906
        },
        "rating": {
            "count": 0,
            "sum": 0
        },
        "images": [
            "1550250726729.jpg",
            "1550250726765.jpg",
            "1550250726767.jpg",
            "1550250726808.jpg"
        ]
    },
    {
        "_id": "9",
        "name": "5th Avenue cafe มหาสารคาม",
        "category": "Food & Drink",
        "address": {
            "address": "131/7 ถนนเฉลิมพระเกียรติ ร9 ตำบลตลาด อำเภอเมือง เทศบาลเมืองมหาสารคาม",
            "province": "Maha Sarakham",
            "district": "Mueang Maha Sarakham"
        },
        "location": {
            "lat": 16.1901757,
            "lng": 103.287906
        },
        "rating": {
            "count": 0,
            "sum": 0
        },
        "images": [
            "1550250726729.jpg",
            "1550250726765.jpg",
            "1550250726767.jpg",
            "1550250726808.jpg"
        ]
    },
    {
        "_id": "10",
        "name": "5th Avenue cafe มหาสารคาม",
        "category": "Food & Drink",
        "address": {
            "address": "131/7 ถนนเฉลิมพระเกียรติ ร9 ตำบลตลาด อำเภอเมือง เทศบาลเมืองมหาสารคาม",
            "province": "Maha Sarakham",
            "district": "Mueang Maha Sarakham"
        },
        "location": {
            "lat": 16.1901757,
            "lng": 103.287906
        },
        "rating": {
            "count": 0,
            "sum": 0
        },
        "images": [
            "1550250726729.jpg",
            "1550250726765.jpg",
            "1550250726767.jpg",
            "1550250726808.jpg"
        ]
    },
    {
        "_id": "11",
        "name": "5th Avenue cafe มหาสารคาม",
        "category": "Food & Drink",
        "address": {
            "address": "131/7 ถนนเฉลิมพระเกียรติ ร9 ตำบลตลาด อำเภอเมือง เทศบาลเมืองมหาสารคาม",
            "province": "Maha Sarakham",
            "district": "Mueang Maha Sarakham"
        },
        "location": {
            "lat": 16.1901757,
            "lng": 103.287906
        },
        "rating": {
            "count": 0,
            "sum": 0
        },
        "images": [
            "1550250726729.jpg",
            "1550250726765.jpg",
            "1550250726767.jpg",
            "1550250726808.jpg"
        ]
    },
    {
        "_id": "12",
        "name": "5th Avenue cafe มหาสารคาม",
        "category": "Food & Drink",
        "address": {
            "address": "131/7 ถนนเฉลิมพระเกียรติ ร9 ตำบลตลาด อำเภอเมือง เทศบาลเมืองมหาสารคาม",
            "province": "Maha Sarakham",
            "district": "Mueang Maha Sarakham"
        },
        "location": {
            "lat": 16.1901757,
            "lng": 103.287906
        },
        "rating": {
            "count": 0,
            "sum": 0
        },
        "images": [
            "1550250726729.jpg",
            "1550250726765.jpg",
            "1550250726767.jpg",
            "1550250726808.jpg"
        ]
    },
    {
        "_id": "13",
        "name": "5th Avenue cafe มหาสารคาม",
        "category": "Food & Drink",
        "address": {
            "address": "131/7 ถนนเฉลิมพระเกียรติ ร9 ตำบลตลาด อำเภอเมือง เทศบาลเมืองมหาสารคาม",
            "province": "Maha Sarakham",
            "district": "Mueang Maha Sarakham"
        },
        "location": {
            "lat": 16.1901757,
            "lng": 103.287906
        },
        "rating": {
            "count": 0,
            "sum": 0
        },
        "images": [
            "1550250726729.jpg",
            "1550250726765.jpg",
            "1550250726767.jpg",
            "1550250726808.jpg"
        ]
    },
    {
        "_id": "14",
        "name": "5th Avenue cafe มหาสารคาม",
        "category": "Food & Drink",
        "address": {
            "address": "131/7 ถนนเฉลิมพระเกียรติ ร9 ตำบลตลาด อำเภอเมือง เทศบาลเมืองมหาสารคาม",
            "province": "Maha Sarakham",
            "district": "Mueang Maha Sarakham"
        },
        "location": {
            "lat": 16.1901757,
            "lng": 103.287906
        },
        "rating": {
            "count": 0,
            "sum": 0
        },
        "images": [
            "1550250726729.jpg",
            "1550250726765.jpg",
            "1550250726767.jpg",
            "1550250726808.jpg"
        ]
    },
    {
        "_id": "15",
        "name": "5th Avenue cafe มหาสารคาม",
        "category": "Food & Drink",
        "address": {
            "address": "131/7 ถนนเฉลิมพระเกียรติ ร9 ตำบลตลาด อำเภอเมือง เทศบาลเมืองมหาสารคาม",
            "province": "Maha Sarakham",
            "district": "Mueang Maha Sarakham"
        },
        "location": {
            "lat": 16.1901757,
            "lng": 103.287906
        },
        "rating": {
            "count": 0,
            "sum": 0
        },
        "images": [
            "1550250726729.jpg",
            "1550250726765.jpg",
            "1550250726767.jpg",
            "1550250726808.jpg"
        ]
    },
    {
        "_id": "16",
        "name": "wwwweeee",
        "category": "tttttttttttttttt",
        "address": {
            "address": "gfgfg",
            "province": "yyyy",
            "district": "rtyrtyr"
        },
        "location": {
            "lat": 16.1901757,
            "lng": 103.287906
        },
        "rating": {
            "count": 0,
            "sum": 0
        },
        "images": [
            "1550250726729.jpg",
            "1550250726765.jpg",
            "1550250726767.jpg",
            "1550250726808.jpg"
        ]
    },
    {
        "_id": "17",
        "name": "5th Avenue cafe มหาสารคาม",
        "category": "Food & Drink",
        "address": {
            "address": "131/7 ถนนเฉลิมพระเกียรติ ร9 ตำบลตลาด อำเภอเมือง เทศบาลเมืองมหาสารคาม",
            "province": "Maha Sarakham",
            "district": "Mueang Maha Sarakham"
        },
        "location": {
            "lat": 16.1901757,
            "lng": 103.287906
        },
        "rating": {
            "count": 0,
            "sum": 0
        },
        "images": [
            "1550250726729.jpg",
            "1550250726765.jpg",
            "1550250726767.jpg",
            "1550250726808.jpg"
        ]
    },
    {
        "_id": "18",
        "name": "5th Avenue cafe มหาสารคาม",
        "category": "Food & Drink",
        "address": {
            "address": "131/7 ถนนเฉลิมพระเกียรติ ร9 ตำบลตลาด อำเภอเมือง เทศบาลเมืองมหาสารคาม",
            "province": "Maha Sarakham",
            "district": "Mueang Maha Sarakham"
        },
        "location": {
            "lat": 16.1901757,
            "lng": 103.287906
        },
        "rating": {
            "count": 0,
            "sum": 0
        },
        "images": [
            "1550250726729.jpg",
            "1550250726765.jpg",
            "1550250726767.jpg",
            "1550250726808.jpg"
        ]
    },
    {
        "_id": "19",
        "name": "5th Avenue cafe มหาสารคาม",
        "category": "Food & Drink",
        "address": {
            "address": "131/7 ถนนเฉลิมพระเกียรติ ร9 ตำบลตลาด อำเภอเมือง เทศบาลเมืองมหาสารคาม",
            "province": "Maha Sarakham",
            "district": "Mueang Maha Sarakham"
        },
        "location": {
            "lat": 16.1901757,
            "lng": 103.287906
        },
        "rating": {
            "count": 0,
            "sum": 0
        },
        "images": [
            "1550250726729.jpg",
            "1550250726765.jpg",
            "1550250726767.jpg",
            "1550250726808.jpg"
        ]
    },
    {
        "_id": "20",
        "name": "5th Avenue cafe มหาสารคาม",
        "category": "Food & Drink",
        "address": {
            "address": "131/7 ถนนเฉลิมพระเกียรติ ร9 ตำบลตลาด อำเภอเมือง เทศบาลเมืองมหาสารคาม",
            "province": "Maha Sarakham",
            "district": "Mueang Maha Sarakham"
        },
        "location": {
            "lat": 16.1901757,
            "lng": 103.287906
        },
        "rating": {
            "count": 0,
            "sum": 0
        },
        "images": [
            "1550250726729.jpg",
            "1550250726765.jpg",
            "1550250726767.jpg",
            "1550250726808.jpg"
        ]
    },
    {
        "_id": "21",
        "name": "5th Avenue cafe มหาสารคาม",
        "category": "Food & Drink",
        "address": {
            "address": "131/7 ถนนเฉลิมพระเกียรติ ร9 ตำบลตลาด อำเภอเมือง เทศบาลเมืองมหาสารคาม",
            "province": "Maha Sarakham",
            "district": "Mueang Maha Sarakham"
        },
        "location": {
            "lat": 16.1901757,
            "lng": 103.287906
        },
        "rating": {
            "count": 0,
            "sum": 0
        },
        "images": [
            "1550250726729.jpg",
            "1550250726765.jpg",
            "1550250726767.jpg",
            "1550250726808.jpg"
        ]
    },
    {
        "_id": "22",
        "name": "5th Avenue cafe มหาสารคาม",
        "category": "Food & Drink",
        "address": {
            "address": "131/7 ถนนเฉลิมพระเกียรติ ร9 ตำบลตลาด อำเภอเมือง เทศบาลเมืองมหาสารคาม",
            "province": "Maha Sarakham",
            "district": "Mueang Maha Sarakham"
        },
        "location": {
            "lat": 16.1901757,
            "lng": 103.287906
        },
        "rating": {
            "count": 0,
            "sum": 0
        },
        "images": [
            "1550250726729.jpg",
            "1550250726765.jpg",
            "1550250726767.jpg",
            "1550250726808.jpg"
        ]
    },
    {
        "_id": "23",
        "name": "5th Avenue cafe มหาสารคาม",
        "category": "Food & Drink",
        "address": {
            "address": "131/7 ถนนเฉลิมพระเกียรติ ร9 ตำบลตลาด อำเภอเมือง เทศบาลเมืองมหาสารคาม",
            "province": "Maha Sarakham",
            "district": "Mueang Maha Sarakham"
        },
        "location": {
            "lat": 16.1901757,
            "lng": 103.287906
        },
        "rating": {
            "count": 0,
            "sum": 0
        },
        "images": [
            "1550250726729.jpg",
            "1550250726765.jpg",
            "1550250726767.jpg",
            "1550250726808.jpg"
        ]
    },
    {
        "_id": "24",
        "name": "5th Avenue cafe มหาสารคาม",
        "category": "Food & Drink",
        "address": {
            "address": "131/7 ถนนเฉลิมพระเกียรติ ร9 ตำบลตลาด อำเภอเมือง เทศบาลเมืองมหาสารคาม",
            "province": "Maha Sarakham",
            "district": "Mueang Maha Sarakham"
        },
        "location": {
            "lat": 16.1901757,
            "lng": 103.287906
        },
        "rating": {
            "count": 0,
            "sum": 0
        },
        "images": [
            "1550250726729.jpg",
            "1550250726765.jpg",
            "1550250726767.jpg",
            "1550250726808.jpg"
        ]
    },
    {
        "_id": "25",
        "name": "5th Avenue cafe มหาสารคาม",
        "category": "Food & Drink",
        "address": {
            "address": "131/7 ถนนเฉลิมพระเกียรติ ร9 ตำบลตลาด อำเภอเมือง เทศบาลเมืองมหาสารคาม",
            "province": "Maha Sarakham",
            "district": "Mueang Maha Sarakham"
        },
        "location": {
            "lat": 16.1901757,
            "lng": 103.287906
        },
        "rating": {
            "count": 0,
            "sum": 0
        },
        "images": [
            "1550250726729.jpg",
            "1550250726765.jpg",
            "1550250726767.jpg",
            "1550250726808.jpg"
        ]
    },
    {
        "_id": "26",
        "name": "5th Avenue cafe มหาสารคาม",
        "category": "Food & Drink",
        "address": {
            "address": "131/7 ถนนเฉลิมพระเกียรติ ร9 ตำบลตลาด อำเภอเมือง เทศบาลเมืองมหาสารคาม",
            "province": "Maha Sarakham",
            "district": "Mueang Maha Sarakham"
        },
        "location": {
            "lat": 16.1901757,
            "lng": 103.287906
        },
        "rating": {
            "count": 0,
            "sum": 0
        },
        "images": [
            "1550250726729.jpg",
            "1550250726765.jpg",
            "1550250726767.jpg",
            "1550250726808.jpg"
        ]
    },
    {
        "_id": "27",
        "name": "5th Avenue cafe มหาสารคาม",
        "category": "Food & Drink",
        "address": {
            "address": "131/7 ถนนเฉลิมพระเกียรติ ร9 ตำบลตลาด อำเภอเมือง เทศบาลเมืองมหาสารคาม",
            "province": "Maha Sarakham",
            "district": "Mueang Maha Sarakham"
        },
        "location": {
            "lat": 16.1901757,
            "lng": 103.287906
        },
        "rating": {
            "count": 0,
            "sum": 0
        },
        "images": [
            "1550250726729.jpg",
            "1550250726765.jpg",
            "1550250726767.jpg",
            "1550250726808.jpg"
        ]
    },
    {
        "_id": "28",
        "name": "5th Avenue cafe มหาสารคาม",
        "category": "Food & Drink",
        "address": {
            "address": "131/7 ถนนเฉลิมพระเกียรติ ร9 ตำบลตลาด อำเภอเมือง เทศบาลเมืองมหาสารคาม",
            "province": "Maha Sarakham",
            "district": "Mueang Maha Sarakham"
        },
        "location": {
            "lat": 16.1901757,
            "lng": 103.287906
        },
        "rating": {
            "count": 0,
            "sum": 0
        },
        "images": [
            "1550250726729.jpg",
            "1550250726765.jpg",
            "1550250726767.jpg",
            "1550250726808.jpg"
        ]
    },
    {
        "_id": "29",
        "name": "5th Avenue cafe มหาสารคาม",
        "category": "Food & Drink",
        "address": {
            "address": "131/7 ถนนเฉลิมพระเกียรติ ร9 ตำบลตลาด อำเภอเมือง เทศบาลเมืองมหาสารคาม",
            "province": "Maha Sarakham",
            "district": "Mueang Maha Sarakham"
        },
        "location": {
            "lat": 16.1901757,
            "lng": 103.287906
        },
        "rating": {
            "count": 0,
            "sum": 0
        },
        "images": [
            "1550250726729.jpg",
            "1550250726765.jpg",
            "1550250726767.jpg",
            "1550250726808.jpg"
        ]
    },
    {
        "_id": "30",
        "name": "5th Avenue cafe มหาสารคาม",
        "category": "Food & Drink",
        "address": {
            "address": "131/7 ถนนเฉลิมพระเกียรติ ร9 ตำบลตลาด อำเภอเมือง เทศบาลเมืองมหาสารคาม",
            "province": "Maha Sarakham",
            "district": "Mueang Maha Sarakham"
        },
        "location": {
            "lat": 16.1901757,
            "lng": 103.287906
        },
        "rating": {
            "count": 0,
            "sum": 0
        },
        "images": [
            "1550250726729.jpg",
            "1550250726765.jpg",
            "1550250726767.jpg",
            "1550250726808.jpg"
        ]
    },
    {
        "_id": "31",
        "name": "5th Avenue cafe มหาสารคาม",
        "category": "Food & Drink",
        "address": {
            "address": "131/7 ถนนเฉลิมพระเกียรติ ร9 ตำบลตลาด อำเภอเมือง เทศบาลเมืองมหาสารคาม",
            "province": "Maha Sarakham",
            "district": "Mueang Maha Sarakham"
        },
        "location": {
            "lat": 16.1901757,
            "lng": 103.287906
        },
        "rating": {
            "count": 0,
            "sum": 0
        },
        "images": [
            "1550250726729.jpg",
            "1550250726765.jpg",
            "1550250726767.jpg",
            "1550250726808.jpg"
        ]
    },
    {
        "_id": "32",
        "name": "5th Avenue cafe มหาสารคาม",
        "category": "Food & Drink",
        "address": {
            "address": "131/7 ถนนเฉลิมพระเกียรติ ร9 ตำบลตลาด อำเภอเมือง เทศบาลเมืองมหาสารคาม",
            "province": "Maha Sarakham",
            "district": "Mueang Maha Sarakham"
        },
        "location": {
            "lat": 16.1901757,
            "lng": 103.287906
        },
        "rating": {
            "count": 0,
            "sum": 0
        },
        "images": [
            "1550250726729.jpg",
            "1550250726765.jpg",
            "1550250726767.jpg",
            "1550250726808.jpg"
        ]
    },
    {
        "_id": "33",
        "name": "5th Avenue cafe มหาสารคาม",
        "category": "Food & Drink",
        "address": {
            "address": "131/7 ถนนเฉลิมพระเกียรติ ร9 ตำบลตลาด อำเภอเมือง เทศบาลเมืองมหาสารคาม",
            "province": "Maha Sarakham",
            "district": "Mueang Maha Sarakham"
        },
        "location": {
            "lat": 16.1901757,
            "lng": 103.287906
        },
        "rating": {
            "count": 0,
            "sum": 0
        },
        "images": [
            "1550250726729.jpg",
            "1550250726765.jpg",
            "1550250726767.jpg",
            "1550250726808.jpg"
        ]
    },
    {
        "_id": "34",
        "name": "5th Avenue cafe มหาสารคาม",
        "category": "Food & Drink",
        "address": {
            "address": "131/7 ถนนเฉลิมพระเกียรติ ร9 ตำบลตลาด อำเภอเมือง เทศบาลเมืองมหาสารคาม",
            "province": "Maha Sarakham",
            "district": "Mueang Maha Sarakham"
        },
        "location": {
            "lat": 16.1901757,
            "lng": 103.287906
        },
        "rating": {
            "count": 0,
            "sum": 0
        },
        "images": [
            "1550250726729.jpg",
            "1550250726765.jpg",
            "1550250726767.jpg",
            "1550250726808.jpg"
        ]
    },
    {
        "_id": "35",
        "name": "5th Avenue cafe มหาสารคาม",
        "category": "Food & Drink",
        "address": {
            "address": "131/7 ถนนเฉลิมพระเกียรติ ร9 ตำบลตลาด อำเภอเมือง เทศบาลเมืองมหาสารคาม",
            "province": "Maha Sarakham",
            "district": "Mueang Maha Sarakham"
        },
        "location": {
            "lat": 16.1901757,
            "lng": 103.287906
        },
        "rating": {
            "count": 0,
            "sum": 0
        },
        "images": [
            "1550250726729.jpg",
            "1550250726765.jpg",
            "1550250726767.jpg",
            "1550250726808.jpg"
        ]
    },
    {
        "_id": "36",
        "name": "5th Avenue cafe มหาสารคาม",
        "category": "Food & Drink",
        "address": {
            "address": "131/7 ถนนเฉลิมพระเกียรติ ร9 ตำบลตลาด อำเภอเมือง เทศบาลเมืองมหาสารคาม",
            "province": "Maha Sarakham",
            "district": "Mueang Maha Sarakham"
        },
        "location": {
            "lat": 16.1901757,
            "lng": 103.287906
        },
        "rating": {
            "count": 0,
            "sum": 0
        },
        "images": [
            "1550250726729.jpg",
            "1550250726765.jpg",
            "1550250726767.jpg",
            "1550250726808.jpg"
        ]
    },
    {
        "_id": "37",
        "name": "5th Avenue cafe มหาสารคาม",
        "category": "Food & Drink",
        "address": {
            "address": "131/7 ถนนเฉลิมพระเกียรติ ร9 ตำบลตลาด อำเภอเมือง เทศบาลเมืองมหาสารคาม",
            "province": "Maha Sarakham",
            "district": "Mueang Maha Sarakham"
        },
        "location": {
            "lat": 16.1901757,
            "lng": 103.287906
        },
        "rating": {
            "count": 0,
            "sum": 0
        },
        "images": [
            "1550250726729.jpg",
            "1550250726765.jpg",
            "1550250726767.jpg",
            "1550250726808.jpg"
        ]
    },
    {
        "_id": "38",
        "name": "5th Avenue cafe มหาสารคาม",
        "category": "Food & Drink",
        "address": {
            "address": "131/7 ถนนเฉลิมพระเกียรติ ร9 ตำบลตลาด อำเภอเมือง เทศบาลเมืองมหาสารคาม",
            "province": "Maha Sarakham",
            "district": "Mueang Maha Sarakham"
        },
        "location": {
            "lat": 16.1901757,
            "lng": 103.287906
        },
        "rating": {
            "count": 0,
            "sum": 0
        },
        "images": [
            "1550250726729.jpg",
            "1550250726765.jpg",
            "1550250726767.jpg",
            "1550250726808.jpg"
        ]
    },
    {
        "_id": "39",
        "name": "5th Avenue cafe มหาสารคาม",
        "category": "Food & Drink",
        "address": {
            "address": "131/7 ถนนเฉลิมพระเกียรติ ร9 ตำบลตลาด อำเภอเมือง เทศบาลเมืองมหาสารคาม",
            "province": "Maha Sarakham",
            "district": "Mueang Maha Sarakham"
        },
        "location": {
            "lat": 16.1901757,
            "lng": 103.287906
        },
        "rating": {
            "count": 0,
            "sum": 0
        },
        "images": [
            "1550250726729.jpg",
            "1550250726765.jpg",
            "1550250726767.jpg",
            "1550250726808.jpg"
        ]
    },
    {
        "_id": "40",
        "name": "5th Avenue cafe มหาสารคาม",
        "category": "Food & Drink",
        "address": {
            "address": "131/7 ถนนเฉลิมพระเกียรติ ร9 ตำบลตลาด อำเภอเมือง เทศบาลเมืองมหาสารคาม",
            "province": "Maha Sarakham",
            "district": "Mueang Maha Sarakham"
        },
        "location": {
            "lat": 16.1901757,
            "lng": 103.287906
        },
        "rating": {
            "count": 0,
            "sum": 0
        },
        "images": [
            "1550250726729.jpg",
            "1550250726765.jpg",
            "1550250726767.jpg",
            "1550250726808.jpg"
        ]
    },
    {
        "_id": "41",
        "name": "5th Avenue cafe มหาสารคาม",
        "category": "Food & Drink",
        "address": {
            "address": "131/7 ถนนเฉลิมพระเกียรติ ร9 ตำบลตลาด อำเภอเมือง เทศบาลเมืองมหาสารคาม",
            "province": "Maha Sarakham",
            "district": "Mueang Maha Sarakham"
        },
        "location": {
            "lat": 16.1901757,
            "lng": 103.287906
        },
        "rating": {
            "count": 0,
            "sum": 0
        },
        "images": [
            "1550250726729.jpg",
            "1550250726765.jpg",
            "1550250726767.jpg",
            "1550250726808.jpg"
        ]
    },
    {
        "_id": "42",
        "name": "5th Avenue cafe มหาสารคาม",
        "category": "Food & Drink",
        "address": {
            "address": "131/7 ถนนเฉลิมพระเกียรติ ร9 ตำบลตลาด อำเภอเมือง เทศบาลเมืองมหาสารคาม",
            "province": "Maha Sarakham",
            "district": "Mueang Maha Sarakham"
        },
        "location": {
            "lat": 16.1901757,
            "lng": 103.287906
        },
        "rating": {
            "count": 0,
            "sum": 0
        },
        "images": [
            "1550250726729.jpg",
            "1550250726765.jpg",
            "1550250726767.jpg",
            "1550250726808.jpg"
        ]
    },
    {
        "_id": "43",
        "name": "5th Avenue cafe มหาสารคาม",
        "category": "Food & Drink",
        "address": {
            "address": "131/7 ถนนเฉลิมพระเกียรติ ร9 ตำบลตลาด อำเภอเมือง เทศบาลเมืองมหาสารคาม",
            "province": "Maha Sarakham",
            "district": "Mueang Maha Sarakham"
        },
        "location": {
            "lat": 16.1901757,
            "lng": 103.287906
        },
        "rating": {
            "count": 0,
            "sum": 0
        },
        "images": [
            "1550250726729.jpg",
            "1550250726765.jpg",
            "1550250726767.jpg",
            "1550250726808.jpg"
        ]
    },
    {
        "_id": "44",
        "name": "5th Avenue cafe มหาสารคาม",
        "category": "Food & Drink",
        "address": {
            "address": "131/7 ถนนเฉลิมพระเกียรติ ร9 ตำบลตลาด อำเภอเมือง เทศบาลเมืองมหาสารคาม",
            "province": "Maha Sarakham",
            "district": "Mueang Maha Sarakham"
        },
        "location": {
            "lat": 16.1901757,
            "lng": 103.287906
        },
        "rating": {
            "count": 0,
            "sum": 0
        },
        "images": [
            "1550250726729.jpg",
            "1550250726765.jpg",
            "1550250726767.jpg",
            "1550250726808.jpg"
        ]
    },
    {
        "_id": "45",
        "name": "5th Avenue cafe มหาสารคาม",
        "category": "Food & Drink",
        "address": {
            "address": "131/7 ถนนเฉลิมพระเกียรติ ร9 ตำบลตลาด อำเภอเมือง เทศบาลเมืองมหาสารคาม",
            "province": "Maha Sarakham",
            "district": "Mueang Maha Sarakham"
        },
        "location": {
            "lat": 16.1901757,
            "lng": 103.287906
        },
        "rating": {
            "count": 0,
            "sum": 0
        },
        "images": [
            "1550250726729.jpg",
            "1550250726765.jpg",
            "1550250726767.jpg",
            "1550250726808.jpg"
        ]
    },
    {
        "_id": "46",
        "name": "5th Avenue cafe มหาสารคาม",
        "category": "Food & Drink",
        "address": {
            "address": "131/7 ถนนเฉลิมพระเกียรติ ร9 ตำบลตลาด อำเภอเมือง เทศบาลเมืองมหาสารคาม",
            "province": "Maha Sarakham",
            "district": "Mueang Maha Sarakham"
        },
        "location": {
            "lat": 16.1901757,
            "lng": 103.287906
        },
        "rating": {
            "count": 0,
            "sum": 0
        },
        "images": [
            "1550250726729.jpg",
            "1550250726765.jpg",
            "1550250726767.jpg",
            "1550250726808.jpg"
        ]
    },
    {
        "_id": "47",
        "name": "5th Avenue cafe มหาสารคาม",
        "category": "Food & Drink",
        "address": {
            "address": "131/7 ถนนเฉลิมพระเกียรติ ร9 ตำบลตลาด อำเภอเมือง เทศบาลเมืองมหาสารคาม",
            "province": "Maha Sarakham",
            "district": "Mueang Maha Sarakham"
        },
        "location": {
            "lat": 16.1901757,
            "lng": 103.287906
        },
        "rating": {
            "count": 0,
            "sum": 0
        },
        "images": [
            "1550250726729.jpg",
            "1550250726765.jpg",
            "1550250726767.jpg",
            "1550250726808.jpg"
        ]
    },
    {
        "_id": "48",
        "name": "5th Avenue cafe มหาสารคาม",
        "category": "Food & Drink",
        "address": {
            "address": "131/7 ถนนเฉลิมพระเกียรติ ร9 ตำบลตลาด อำเภอเมือง เทศบาลเมืองมหาสารคาม",
            "province": "Maha Sarakham",
            "district": "Mueang Maha Sarakham"
        },
        "location": {
            "lat": 16.1901757,
            "lng": 103.287906
        },
        "rating": {
            "count": 0,
            "sum": 0
        },
        "images": [
            "1550250726729.jpg",
            "1550250726765.jpg",
            "1550250726767.jpg",
            "1550250726808.jpg"
        ]
    },
    {
        "_id": "49",
        "name": "5th Avenue cafe มหาสารคาม",
        "category": "Food & Drink",
        "address": {
            "address": "131/7 ถนนเฉลิมพระเกียรติ ร9 ตำบลตลาด อำเภอเมือง เทศบาลเมืองมหาสารคาม",
            "province": "Maha Sarakham",
            "district": "Mueang Maha Sarakham"
        },
        "location": {
            "lat": 16.1901757,
            "lng": 103.287906
        },
        "rating": {
            "count": 0,
            "sum": 0
        },
        "images": [
            "1550250726729.jpg",
            "1550250726765.jpg",
            "1550250726767.jpg",
            "1550250726808.jpg"
        ]
    },
    {
        "_id": "50",
        "name": "5th Avenue cafe มหาสารคาม",
        "category": "Food & Drink",
        "address": {
            "address": "131/7 ถนนเฉลิมพระเกียรติ ร9 ตำบลตลาด อำเภอเมือง เทศบาลเมืองมหาสารคาม",
            "province": "Maha Sarakham",
            "district": "Mueang Maha Sarakham"
        },
        "location": {
            "lat": 16.1901757,
            "lng": 103.287906
        },
        "rating": {
            "count": 0,
            "sum": 0
        },
        "images": [
            "1550250726729.jpg",
            "1550250726765.jpg",
            "1550250726767.jpg",
            "1550250726808.jpg"
        ]
    },
    {
        "_id": "51",
        "name": "5th Avenue cafe มหาสารคาม",
        "category": "Food & Drink",
        "address": {
            "address": "131/7 ถนนเฉลิมพระเกียรติ ร9 ตำบลตลาด อำเภอเมือง เทศบาลเมืองมหาสารคาม",
            "province": "Maha Sarakham",
            "district": "Mueang Maha Sarakham"
        },
        "location": {
            "lat": 16.1901757,
            "lng": 103.287906
        },
        "rating": {
            "count": 0,
            "sum": 0
        },
        "images": [
            "1550250726729.jpg",
            "1550250726765.jpg",
            "1550250726767.jpg",
            "1550250726808.jpg"
        ]
    },
    {
        "_id": "52",
        "name": "5th Avenue cafe มหาสารคาม",
        "category": "Food & Drink",
        "address": {
            "address": "131/7 ถนนเฉลิมพระเกียรติ ร9 ตำบลตลาด อำเภอเมือง เทศบาลเมืองมหาสารคาม",
            "province": "Maha Sarakham",
            "district": "Mueang Maha Sarakham"
        },
        "location": {
            "lat": 16.1901757,
            "lng": 103.287906
        },
        "rating": {
            "count": 0,
            "sum": 0
        },
        "images": [
            "1550250726729.jpg",
            "1550250726765.jpg",
            "1550250726767.jpg",
            "1550250726808.jpg"
        ]
    },
    {
        "_id": "53",
        "name": "5th Avenue cafe มหาสารคาม",
        "category": "Food & Drink",
        "address": {
            "address": "131/7 ถนนเฉลิมพระเกียรติ ร9 ตำบลตลาด อำเภอเมือง เทศบาลเมืองมหาสารคาม",
            "province": "Maha Sarakham",
            "district": "Mueang Maha Sarakham"
        },
        "location": {
            "lat": 16.1901757,
            "lng": 103.287906
        },
        "rating": {
            "count": 0,
            "sum": 0
        },
        "images": [
            "1550250726729.jpg",
            "1550250726765.jpg",
            "1550250726767.jpg",
            "1550250726808.jpg"
        ]
    },
    {
        "_id": "54",
        "name": "5th Avenue cafe มหาสารคาม",
        "category": "Food & Drink",
        "address": {
            "address": "131/7 ถนนเฉลิมพระเกียรติ ร9 ตำบลตลาด อำเภอเมือง เทศบาลเมืองมหาสารคาม",
            "province": "Maha Sarakham",
            "district": "Mueang Maha Sarakham"
        },
        "location": {
            "lat": 16.1901757,
            "lng": 103.287906
        },
        "rating": {
            "count": 0,
            "sum": 0
        },
        "images": [
            "1550250726729.jpg",
            "1550250726765.jpg",
            "1550250726767.jpg",
            "1550250726808.jpg"
        ]
    },
    {
        "_id": "55",
        "name": "5th Avenue cafe มหาสารคาม",
        "category": "Food & Drink",
        "address": {
            "address": "131/7 ถนนเฉลิมพระเกียรติ ร9 ตำบลตลาด อำเภอเมือง เทศบาลเมืองมหาสารคาม",
            "province": "Maha Sarakham",
            "district": "Mueang Maha Sarakham"
        },
        "location": {
            "lat": 16.1901757,
            "lng": 103.287906
        },
        "rating": {
            "count": 0,
            "sum": 0
        },
        "images": [
            "1550250726729.jpg",
            "1550250726765.jpg",
            "1550250726767.jpg",
            "1550250726808.jpg"
        ]
    },
    {
        "_id": "56",
        "name": "5th Avenue cafe มหาสารคาม",
        "category": "Food & Drink",
        "address": {
            "address": "131/7 ถนนเฉลิมพระเกียรติ ร9 ตำบลตลาด อำเภอเมือง เทศบาลเมืองมหาสารคาม",
            "province": "Maha Sarakham",
            "district": "Mueang Maha Sarakham"
        },
        "location": {
            "lat": 16.1901757,
            "lng": 103.287906
        },
        "rating": {
            "count": 0,
            "sum": 0
        },
        "images": [
            "1550250726729.jpg",
            "1550250726765.jpg",
            "1550250726767.jpg",
            "1550250726808.jpg"
        ]
    },
    {
        "_id": "57",
        "name": "5th Avenue cafe มหาสารคาม",
        "category": "Food & Drink",
        "address": {
            "address": "131/7 ถนนเฉลิมพระเกียรติ ร9 ตำบลตลาด อำเภอเมือง เทศบาลเมืองมหาสารคาม",
            "province": "Maha Sarakham",
            "district": "Mueang Maha Sarakham"
        },
        "location": {
            "lat": 16.1901757,
            "lng": 103.287906
        },
        "rating": {
            "count": 0,
            "sum": 0
        },
        "images": [
            "1550250726729.jpg",
            "1550250726765.jpg",
            "1550250726767.jpg",
            "1550250726808.jpg"
        ]
    },
    {
        "_id": "58",
        "name": "5th Avenue cafe มหาสารคาม",
        "category": "Food & Drink",
        "address": {
            "address": "131/7 ถนนเฉลิมพระเกียรติ ร9 ตำบลตลาด อำเภอเมือง เทศบาลเมืองมหาสารคาม",
            "province": "Maha Sarakham",
            "district": "Mueang Maha Sarakham"
        },
        "location": {
            "lat": 16.1901757,
            "lng": 103.287906
        },
        "rating": {
            "count": 0,
            "sum": 0
        },
        "images": [
            "1550250726729.jpg",
            "1550250726765.jpg",
            "1550250726767.jpg",
            "1550250726808.jpg"
        ]
    },
    {
        "_id": "59",
        "name": "5th Avenue cafe มหาสารคาม",
        "category": "Food & Drink",
        "address": {
            "address": "131/7 ถนนเฉลิมพระเกียรติ ร9 ตำบลตลาด อำเภอเมือง เทศบาลเมืองมหาสารคาม",
            "province": "Maha Sarakham",
            "district": "Mueang Maha Sarakham"
        },
        "location": {
            "lat": 16.1901757,
            "lng": 103.287906
        },
        "rating": {
            "count": 0,
            "sum": 0
        },
        "images": [
            "1550250726729.jpg",
            "1550250726765.jpg",
            "1550250726767.jpg",
            "1550250726808.jpg"
        ]
    },
    {
        "_id": "60",
        "name": "5th Avenue cafe มหาสารคาม",
        "category": "Food & Drink",
        "address": {
            "address": "131/7 ถนนเฉลิมพระเกียรติ ร9 ตำบลตลาด อำเภอเมือง เทศบาลเมืองมหาสารคาม",
            "province": "Maha Sarakham",
            "district": "Mueang Maha Sarakham"
        },
        "location": {
            "lat": 16.1901757,
            "lng": 103.287906
        },
        "rating": {
            "count": 0,
            "sum": 0
        },
        "images": [
            "1550250726729.jpg",
            "1550250726765.jpg",
            "1550250726767.jpg",
            "1550250726808.jpg"
        ]
    },
    {
        "_id": "61",
        "name": "5th Avenue cafe มหาสารคาม",
        "category": "Food & Drink",
        "address": {
            "address": "131/7 ถนนเฉลิมพระเกียรติ ร9 ตำบลตลาด อำเภอเมือง เทศบาลเมืองมหาสารคาม",
            "province": "Maha Sarakham",
            "district": "Mueang Maha Sarakham"
        },
        "location": {
            "lat": 16.1901757,
            "lng": 103.287906
        },
        "rating": {
            "count": 0,
            "sum": 0
        },
        "images": [
            "1550250726729.jpg",
            "1550250726765.jpg",
            "1550250726767.jpg",
            "1550250726808.jpg"
        ]
    },
    {
        "_id": "62",
        "name": "5th Avenue cafe มหาสารคาม",
        "category": "Food & Drink",
        "address": {
            "address": "131/7 ถนนเฉลิมพระเกียรติ ร9 ตำบลตลาด อำเภอเมือง เทศบาลเมืองมหาสารคาม",
            "province": "Maha Sarakham",
            "district": "Mueang Maha Sarakham"
        },
        "location": {
            "lat": 16.1901757,
            "lng": 103.287906
        },
        "rating": {
            "count": 0,
            "sum": 0
        },
        "images": [
            "1550250726729.jpg",
            "1550250726765.jpg",
            "1550250726767.jpg",
            "1550250726808.jpg"
        ]
    },
    {
        "_id": "63",
        "name": "5th Avenue cafe มหาสารคาม",
        "category": "Food & Drink",
        "address": {
            "address": "131/7 ถนนเฉลิมพระเกียรติ ร9 ตำบลตลาด อำเภอเมือง เทศบาลเมืองมหาสารคาม",
            "province": "Maha Sarakham",
            "district": "Mueang Maha Sarakham"
        },
        "location": {
            "lat": 16.1901757,
            "lng": 103.287906
        },
        "rating": {
            "count": 0,
            "sum": 0
        },
        "images": [
            "1550250726729.jpg",
            "1550250726765.jpg",
            "1550250726767.jpg",
            "1550250726808.jpg"
        ]
    },
    {
        "_id": "64",
        "name": "5th Avenue cafe มหาสารคาม",
        "category": "Food & Drink",
        "address": {
            "address": "131/7 ถนนเฉลิมพระเกียรติ ร9 ตำบลตลาด อำเภอเมือง เทศบาลเมืองมหาสารคาม",
            "province": "Maha Sarakham",
            "district": "Mueang Maha Sarakham"
        },
        "location": {
            "lat": 16.1901757,
            "lng": 103.287906
        },
        "rating": {
            "count": 0,
            "sum": 0
        },
        "images": [
            "1550250726729.jpg",
            "1550250726765.jpg",
            "1550250726767.jpg",
            "1550250726808.jpg"
        ]
    },
    {
        "_id": "65",
        "name": "5th Avenue cafe มหาสารคาม",
        "category": "Food & Drink",
        "address": {
            "address": "131/7 ถนนเฉลิมพระเกียรติ ร9 ตำบลตลาด อำเภอเมือง เทศบาลเมืองมหาสารคาม",
            "province": "Maha Sarakham",
            "district": "Mueang Maha Sarakham"
        },
        "location": {
            "lat": 16.1901757,
            "lng": 103.287906
        },
        "rating": {
            "count": 0,
            "sum": 0
        },
        "images": [
            "1550250726729.jpg",
            "1550250726765.jpg",
            "1550250726767.jpg",
            "1550250726808.jpg"
        ]
    },
    {
        "_id": "66",
        "name": "5th Avenue cafe มหาสารคาม",
        "category": "Food & Drink",
        "address": {
            "address": "131/7 ถนนเฉลิมพระเกียรติ ร9 ตำบลตลาด อำเภอเมือง เทศบาลเมืองมหาสารคาม",
            "province": "Maha Sarakham",
            "district": "Mueang Maha Sarakham"
        },
        "location": {
            "lat": 16.1901757,
            "lng": 103.287906
        },
        "rating": {
            "count": 0,
            "sum": 0
        },
        "images": [
            "1550250726729.jpg",
            "1550250726765.jpg",
            "1550250726767.jpg",
            "1550250726808.jpg"
        ]
    },
    {
        "_id": "67",
        "name": "5th Avenue cafe มหาสารคาม",
        "category": "Food & Drink",
        "address": {
            "address": "131/7 ถนนเฉลิมพระเกียรติ ร9 ตำบลตลาด อำเภอเมือง เทศบาลเมืองมหาสารคาม",
            "province": "Maha Sarakham",
            "district": "Mueang Maha Sarakham"
        },
        "location": {
            "lat": 16.1901757,
            "lng": 103.287906
        },
        "rating": {
            "count": 0,
            "sum": 0
        },
        "images": [
            "1550250726729.jpg",
            "1550250726765.jpg",
            "1550250726767.jpg",
            "1550250726808.jpg"
        ]
    },
    {
        "_id": "68",
        "name": "5th Avenue cafe มหาสารคาม",
        "category": "Food & Drink",
        "address": {
            "address": "131/7 ถนนเฉลิมพระเกียรติ ร9 ตำบลตลาด อำเภอเมือง เทศบาลเมืองมหาสารคาม",
            "province": "Maha Sarakham",
            "district": "Mueang Maha Sarakham"
        },
        "location": {
            "lat": 16.1901757,
            "lng": 103.287906
        },
        "rating": {
            "count": 0,
            "sum": 0
        },
        "images": [
            "1550250726729.jpg",
            "1550250726765.jpg",
            "1550250726767.jpg",
            "1550250726808.jpg"
        ]
    },
    {
        "_id": "69",
        "name": "5th Avenue cafe มหาสารคาม",
        "category": "Food & Drink",
        "address": {
            "address": "131/7 ถนนเฉลิมพระเกียรติ ร9 ตำบลตลาด อำเภอเมือง เทศบาลเมืองมหาสารคาม",
            "province": "Maha Sarakham",
            "district": "Mueang Maha Sarakham"
        },
        "location": {
            "lat": 16.1901757,
            "lng": 103.287906
        },
        "rating": {
            "count": 0,
            "sum": 0
        },
        "images": [
            "1550250726729.jpg",
            "1550250726765.jpg",
            "1550250726767.jpg",
            "1550250726808.jpg"
        ]
    },
    {
        "_id": "70",
        "name": "5th Avenue cafe มหาสารคาม",
        "category": "Food & Drink",
        "address": {
            "address": "131/7 ถนนเฉลิมพระเกียรติ ร9 ตำบลตลาด อำเภอเมือง เทศบาลเมืองมหาสารคาม",
            "province": "Maha Sarakham",
            "district": "Mueang Maha Sarakham"
        },
        "location": {
            "lat": 16.1901757,
            "lng": 103.287906
        },
        "rating": {
            "count": 0,
            "sum": 0
        },
        "images": [
            "1550250726729.jpg",
            "1550250726765.jpg",
            "1550250726767.jpg",
            "1550250726808.jpg"
        ]
    },
    {
        "_id": "71",
        "name": "5th Avenue cafe มหาสารคาม",
        "category": "Food & Drink",
        "address": {
            "address": "131/7 ถนนเฉลิมพระเกียรติ ร9 ตำบลตลาด อำเภอเมือง เทศบาลเมืองมหาสารคาม",
            "province": "Maha Sarakham",
            "district": "Mueang Maha Sarakham"
        },
        "location": {
            "lat": 16.1901757,
            "lng": 103.287906
        },
        "rating": {
            "count": 0,
            "sum": 0
        },
        "images": [
            "1550250726729.jpg",
            "1550250726765.jpg",
            "1550250726767.jpg",
            "1550250726808.jpg"
        ]
    },
    {
        "_id": "72",
        "name": "5th Avenue cafe มหาสารคาม",
        "category": "Food & Drink",
        "address": {
            "address": "131/7 ถนนเฉลิมพระเกียรติ ร9 ตำบลตลาด อำเภอเมือง เทศบาลเมืองมหาสารคาม",
            "province": "Maha Sarakham",
            "district": "Mueang Maha Sarakham"
        },
        "location": {
            "lat": 16.1901757,
            "lng": 103.287906
        },
        "rating": {
            "count": 0,
            "sum": 0
        },
        "images": [
            "1550250726729.jpg",
            "1550250726765.jpg",
            "1550250726767.jpg",
            "1550250726808.jpg"
        ]
    },
    {
        "_id": "73",
        "name": "5th Avenue cafe มหาสารคาม",
        "category": "Food & Drink",
        "address": {
            "address": "131/7 ถนนเฉลิมพระเกียรติ ร9 ตำบลตลาด อำเภอเมือง เทศบาลเมืองมหาสารคาม",
            "province": "Maha Sarakham",
            "district": "Mueang Maha Sarakham"
        },
        "location": {
            "lat": 16.1901757,
            "lng": 103.287906
        },
        "rating": {
            "count": 0,
            "sum": 0
        },
        "images": [
            "1550250726729.jpg",
            "1550250726765.jpg",
            "1550250726767.jpg",
            "1550250726808.jpg"
        ]
    },
    {
        "_id": "74",
        "name": "5th Avenue cafe มหาสารคาม",
        "category": "Food & Drink",
        "address": {
            "address": "131/7 ถนนเฉลิมพระเกียรติ ร9 ตำบลตลาด อำเภอเมือง เทศบาลเมืองมหาสารคาม",
            "province": "Maha Sarakham",
            "district": "Mueang Maha Sarakham"
        },
        "location": {
            "lat": 16.1901757,
            "lng": 103.287906
        },
        "rating": {
            "count": 0,
            "sum": 0
        },
        "images": [
            "1550250726729.jpg",
            "1550250726765.jpg",
            "1550250726767.jpg",
            "1550250726808.jpg"
        ]
    },
    {
        "_id": "75",
        "name": "5th Avenue cafe มหาสารคาม",
        "category": "Food & Drink",
        "address": {
            "address": "131/7 ถนนเฉลิมพระเกียรติ ร9 ตำบลตลาด อำเภอเมือง เทศบาลเมืองมหาสารคาม",
            "province": "Maha Sarakham",
            "district": "Mueang Maha Sarakham"
        },
        "location": {
            "lat": 16.1901757,
            "lng": 103.287906
        },
        "rating": {
            "count": 0,
            "sum": 0
        },
        "images": [
            "1550250726729.jpg",
            "1550250726765.jpg",
            "1550250726767.jpg",
            "1550250726808.jpg"
        ]
    },
    {
        "_id": "76",
        "name": "5th Avenue cafe มหาสารคาม",
        "category": "Food & Drink",
        "address": {
            "address": "131/7 ถนนเฉลิมพระเกียรติ ร9 ตำบลตลาด อำเภอเมือง เทศบาลเมืองมหาสารคาม",
            "province": "Maha Sarakham",
            "district": "Mueang Maha Sarakham"
        },
        "location": {
            "lat": 16.1901757,
            "lng": 103.287906
        },
        "rating": {
            "count": 0,
            "sum": 0
        },
        "images": [
            "1550250726729.jpg",
            "1550250726765.jpg",
            "1550250726767.jpg",
            "1550250726808.jpg"
        ]
    },
    {
        "_id": "77",
        "name": "5th Avenue cafe มหาสารคาม",
        "category": "Food & Drink",
        "address": {
            "address": "131/7 ถนนเฉลิมพระเกียรติ ร9 ตำบลตลาด อำเภอเมือง เทศบาลเมืองมหาสารคาม",
            "province": "Maha Sarakham",
            "district": "Mueang Maha Sarakham"
        },
        "location": {
            "lat": 16.1901757,
            "lng": 103.287906
        },
        "rating": {
            "count": 0,
            "sum": 0
        },
        "images": [
            "1550250726729.jpg",
            "1550250726765.jpg",
            "1550250726767.jpg",
            "1550250726808.jpg"
        ]
    },
    {
        "_id": "78",
        "name": "5th Avenue cafe มหาสารคาม",
        "category": "Food & Drink",
        "address": {
            "address": "131/7 ถนนเฉลิมพระเกียรติ ร9 ตำบลตลาด อำเภอเมือง เทศบาลเมืองมหาสารคาม",
            "province": "Maha Sarakham",
            "district": "Mueang Maha Sarakham"
        },
        "location": {
            "lat": 16.1901757,
            "lng": 103.287906
        },
        "rating": {
            "count": 0,
            "sum": 0
        },
        "images": [
            "1550250726729.jpg",
            "1550250726765.jpg",
            "1550250726767.jpg",
            "1550250726808.jpg"
        ]
    },
    {
        "_id": "79",
        "name": "5th Avenue cafe มหาสารคาม",
        "category": "Food & Drink",
        "address": {
            "address": "131/7 ถนนเฉลิมพระเกียรติ ร9 ตำบลตลาด อำเภอเมือง เทศบาลเมืองมหาสารคาม",
            "province": "Maha Sarakham",
            "district": "Mueang Maha Sarakham"
        },
        "location": {
            "lat": 16.1901757,
            "lng": 103.287906
        },
        "rating": {
            "count": 0,
            "sum": 0
        },
        "images": [
            "1550250726729.jpg",
            "1550250726765.jpg",
            "1550250726767.jpg",
            "1550250726808.jpg"
        ]
    },
    {
        "_id": "80",
        "name": "5th Avenue cafe มหาสารคาม",
        "category": "Food & Drink",
        "address": {
            "address": "131/7 ถนนเฉลิมพระเกียรติ ร9 ตำบลตลาด อำเภอเมือง เทศบาลเมืองมหาสารคาม",
            "province": "Maha Sarakham",
            "district": "Mueang Maha Sarakham"
        },
        "location": {
            "lat": 16.1901757,
            "lng": 103.287906
        },
        "rating": {
            "count": 0,
            "sum": 0
        },
        "images": [
            "1550250726729.jpg",
            "1550250726765.jpg",
            "1550250726767.jpg",
            "1550250726808.jpg"
        ]
    },
    {
        "_id": "81",
        "name": "5th Avenue cafe มหาสารคาม",
        "category": "Food & Drink",
        "address": {
            "address": "131/7 ถนนเฉลิมพระเกียรติ ร9 ตำบลตลาด อำเภอเมือง เทศบาลเมืองมหาสารคาม",
            "province": "Maha Sarakham",
            "district": "Mueang Maha Sarakham"
        },
        "location": {
            "lat": 16.1901757,
            "lng": 103.287906
        },
        "rating": {
            "count": 0,
            "sum": 0
        },
        "images": [
            "1550250726729.jpg",
            "1550250726765.jpg",
            "1550250726767.jpg",
            "1550250726808.jpg"
        ]
    },
    {
        "_id": "82",
        "name": "5th Avenue cafe มหาสารคาม",
        "category": "Food & Drink",
        "address": {
            "address": "131/7 ถนนเฉลิมพระเกียรติ ร9 ตำบลตลาด อำเภอเมือง เทศบาลเมืองมหาสารคาม",
            "province": "Maha Sarakham",
            "district": "Mueang Maha Sarakham"
        },
        "location": {
            "lat": 16.1901757,
            "lng": 103.287906
        },
        "rating": {
            "count": 0,
            "sum": 0
        },
        "images": [
            "1550250726729.jpg",
            "1550250726765.jpg",
            "1550250726767.jpg",
            "1550250726808.jpg"
        ]
    },
    {
        "_id": "83",
        "name": "5th Avenue cafe มหาสารคาม",
        "category": "Food & Drink",
        "address": {
            "address": "131/7 ถนนเฉลิมพระเกียรติ ร9 ตำบลตลาด อำเภอเมือง เทศบาลเมืองมหาสารคาม",
            "province": "Maha Sarakham",
            "district": "Mueang Maha Sarakham"
        },
        "location": {
            "lat": 16.1901757,
            "lng": 103.287906
        },
        "rating": {
            "count": 0,
            "sum": 0
        },
        "images": [
            "1550250726729.jpg",
            "1550250726765.jpg",
            "1550250726767.jpg",
            "1550250726808.jpg"
        ]
    },
    {
        "_id": "84",
        "name": "5th Avenue cafe มหาสารคาม",
        "category": "Food & Drink",
        "address": {
            "address": "131/7 ถนนเฉลิมพระเกียรติ ร9 ตำบลตลาด อำเภอเมือง เทศบาลเมืองมหาสารคาม",
            "province": "Maha Sarakham",
            "district": "Mueang Maha Sarakham"
        },
        "location": {
            "lat": 16.1901757,
            "lng": 103.287906
        },
        "rating": {
            "count": 0,
            "sum": 0
        },
        "images": [
            "1550250726729.jpg",
            "1550250726765.jpg",
            "1550250726767.jpg",
            "1550250726808.jpg"
        ]
    },
    {
        "_id": "85",
        "name": "5th Avenue cafe มหาสารคาม",
        "category": "Food & Drink",
        "address": {
            "address": "131/7 ถนนเฉลิมพระเกียรติ ร9 ตำบลตลาด อำเภอเมือง เทศบาลเมืองมหาสารคาม",
            "province": "Maha Sarakham",
            "district": "Mueang Maha Sarakham"
        },
        "location": {
            "lat": 16.1901757,
            "lng": 103.287906
        },
        "rating": {
            "count": 0,
            "sum": 0
        },
        "images": [
            "1550250726729.jpg",
            "1550250726765.jpg",
            "1550250726767.jpg",
            "1550250726808.jpg"
        ]
    },
    {
        "_id": "86",
        "name": "5th Avenue cafe มหาสารคาม",
        "category": "Food & Drink",
        "address": {
            "address": "131/7 ถนนเฉลิมพระเกียรติ ร9 ตำบลตลาด อำเภอเมือง เทศบาลเมืองมหาสารคาม",
            "province": "Maha Sarakham",
            "district": "Mueang Maha Sarakham"
        },
        "location": {
            "lat": 16.1901757,
            "lng": 103.287906
        },
        "rating": {
            "count": 0,
            "sum": 0
        },
        "images": [
            "1550250726729.jpg",
            "1550250726765.jpg",
            "1550250726767.jpg",
            "1550250726808.jpg"
        ]
    },
    {
        "_id": "87",
        "name": "5th Avenue cafe มหาสารคาม",
        "category": "Food & Drink",
        "address": {
            "address": "131/7 ถนนเฉลิมพระเกียรติ ร9 ตำบลตลาด อำเภอเมือง เทศบาลเมืองมหาสารคาม",
            "province": "Maha Sarakham",
            "district": "Mueang Maha Sarakham"
        },
        "location": {
            "lat": 16.1901757,
            "lng": 103.287906
        },
        "rating": {
            "count": 0,
            "sum": 0
        },
        "images": [
            "1550250726729.jpg",
            "1550250726765.jpg",
            "1550250726767.jpg",
            "1550250726808.jpg"
        ]
    },
    {
        "_id": "88",
        "name": "5th Avenue cafe มหาสารคาม",
        "category": "Food & Drink",
        "address": {
            "address": "131/7 ถนนเฉลิมพระเกียรติ ร9 ตำบลตลาด อำเภอเมือง เทศบาลเมืองมหาสารคาม",
            "province": "Maha Sarakham",
            "district": "Mueang Maha Sarakham"
        },
        "location": {
            "lat": 16.1901757,
            "lng": 103.287906
        },
        "rating": {
            "count": 0,
            "sum": 0
        },
        "images": [
            "1550250726729.jpg",
            "1550250726765.jpg",
            "1550250726767.jpg",
            "1550250726808.jpg"
        ]
    },
    {
        "_id": "89",
        "name": "5th Avenue cafe มหาสารคาม",
        "category": "Food & Drink",
        "address": {
            "address": "131/7 ถนนเฉลิมพระเกียรติ ร9 ตำบลตลาด อำเภอเมือง เทศบาลเมืองมหาสารคาม",
            "province": "Maha Sarakham",
            "district": "Mueang Maha Sarakham"
        },
        "location": {
            "lat": 16.1901757,
            "lng": 103.287906
        },
        "rating": {
            "count": 0,
            "sum": 0
        },
        "images": [
            "1550250726729.jpg",
            "1550250726765.jpg",
            "1550250726767.jpg",
            "1550250726808.jpg"
        ]
    },
    {
        "_id": "90",
        "name": "5th Avenue cafe มหาสารคาม",
        "category": "Food & Drink",
        "address": {
            "address": "131/7 ถนนเฉลิมพระเกียรติ ร9 ตำบลตลาด อำเภอเมือง เทศบาลเมืองมหาสารคาม",
            "province": "Maha Sarakham",
            "district": "Mueang Maha Sarakham"
        },
        "location": {
            "lat": 16.1901757,
            "lng": 103.287906
        },
        "rating": {
            "count": 0,
            "sum": 0
        },
        "images": [
            "1550250726729.jpg",
            "1550250726765.jpg",
            "1550250726767.jpg",
            "1550250726808.jpg"
        ]
    },
    {
        "_id": "91",
        "name": "5th Avenue cafe มหาสารคาม",
        "category": "Food & Drink",
        "address": {
            "address": "131/7 ถนนเฉลิมพระเกียรติ ร9 ตำบลตลาด อำเภอเมือง เทศบาลเมืองมหาสารคาม",
            "province": "Maha Sarakham",
            "district": "Mueang Maha Sarakham"
        },
        "location": {
            "lat": 16.1901757,
            "lng": 103.287906
        },
        "rating": {
            "count": 0,
            "sum": 0
        },
        "images": [
            "1550250726729.jpg",
            "1550250726765.jpg",
            "1550250726767.jpg",
            "1550250726808.jpg"
        ]
    },
    {
        "_id": "92",
        "name": "5th Avenue cafe มหาสารคาม",
        "category": "Food & Drink",
        "address": {
            "address": "131/7 ถนนเฉลิมพระเกียรติ ร9 ตำบลตลาด อำเภอเมือง เทศบาลเมืองมหาสารคาม",
            "province": "Maha Sarakham",
            "district": "Mueang Maha Sarakham"
        },
        "location": {
            "lat": 16.1901757,
            "lng": 103.287906
        },
        "rating": {
            "count": 0,
            "sum": 0
        },
        "images": [
            "1550250726729.jpg",
            "1550250726765.jpg",
            "1550250726767.jpg",
            "1550250726808.jpg"
        ]
    },
    {
        "_id": "93",
        "name": "5th Avenue cafe มหาสารคาม",
        "category": "Food & Drink",
        "address": {
            "address": "131/7 ถนนเฉลิมพระเกียรติ ร9 ตำบลตลาด อำเภอเมือง เทศบาลเมืองมหาสารคาม",
            "province": "Maha Sarakham",
            "district": "Mueang Maha Sarakham"
        },
        "location": {
            "lat": 16.1901757,
            "lng": 103.287906
        },
        "rating": {
            "count": 0,
            "sum": 0
        },
        "images": [
            "1550250726729.jpg",
            "1550250726765.jpg",
            "1550250726767.jpg",
            "1550250726808.jpg"
        ]
    },
    {
        "_id": "94",
        "name": "5th Avenue cafe มหาสารคาม",
        "category": "Food & Drink",
        "address": {
            "address": "131/7 ถนนเฉลิมพระเกียรติ ร9 ตำบลตลาด อำเภอเมือง เทศบาลเมืองมหาสารคาม",
            "province": "Maha Sarakham",
            "district": "Mueang Maha Sarakham"
        },
        "location": {
            "lat": 16.1901757,
            "lng": 103.287906
        },
        "rating": {
            "count": 0,
            "sum": 0
        },
        "images": [
            "1550250726729.jpg",
            "1550250726765.jpg",
            "1550250726767.jpg",
            "1550250726808.jpg"
        ]
    },
    {
        "_id": "95",
        "name": "5th Avenue cafe มหาสารคาม",
        "category": "Food & Drink",
        "address": {
            "address": "131/7 ถนนเฉลิมพระเกียรติ ร9 ตำบลตลาด อำเภอเมือง เทศบาลเมืองมหาสารคาม",
            "province": "Maha Sarakham",
            "district": "Mueang Maha Sarakham"
        },
        "location": {
            "lat": 16.1901757,
            "lng": 103.287906
        },
        "rating": {
            "count": 0,
            "sum": 0
        },
        "images": [
            "1550250726729.jpg",
            "1550250726765.jpg",
            "1550250726767.jpg",
            "1550250726808.jpg"
        ]
    },
    {
        "_id": "96",
        "name": "5th Avenue cafe มหาสารคาม",
        "category": "Food & Drink",
        "address": {
            "address": "131/7 ถนนเฉลิมพระเกียรติ ร9 ตำบลตลาด อำเภอเมือง เทศบาลเมืองมหาสารคาม",
            "province": "Maha Sarakham",
            "district": "Mueang Maha Sarakham"
        },
        "location": {
            "lat": 16.1901757,
            "lng": 103.287906
        },
        "rating": {
            "count": 0,
            "sum": 0
        },
        "images": [
            "1550250726729.jpg",
            "1550250726765.jpg",
            "1550250726767.jpg",
            "1550250726808.jpg"
        ]
    },
    {
        "_id": "97",
        "name": "5th Avenue cafe มหาสารคาม",
        "category": "Food & Drink",
        "address": {
            "address": "131/7 ถนนเฉลิมพระเกียรติ ร9 ตำบลตลาด อำเภอเมือง เทศบาลเมืองมหาสารคาม",
            "province": "Maha Sarakham",
            "district": "Mueang Maha Sarakham"
        },
        "location": {
            "lat": 16.1901757,
            "lng": 103.287906
        },
        "rating": {
            "count": 0,
            "sum": 0
        },
        "images": [
            "1550250726729.jpg",
            "1550250726765.jpg",
            "1550250726767.jpg",
            "1550250726808.jpg"
        ]
    },
    {
        "_id": "98",
        "name": "5th Avenue cafe มหาสารคาม",
        "category": "Food & Drink",
        "address": {
            "address": "131/7 ถนนเฉลิมพระเกียรติ ร9 ตำบลตลาด อำเภอเมือง เทศบาลเมืองมหาสารคาม",
            "province": "Maha Sarakham",
            "district": "Mueang Maha Sarakham"
        },
        "location": {
            "lat": 16.1901757,
            "lng": 103.287906
        },
        "rating": {
            "count": 0,
            "sum": 0
        },
        "images": [
            "1550250726729.jpg",
            "1550250726765.jpg",
            "1550250726767.jpg",
            "1550250726808.jpg"
        ]
    },
    {
        "_id": "99",
        "name": "5th Avenue cafe มหาสารคาม",
        "category": "Food & Drink",
        "address": {
            "address": "131/7 ถนนเฉลิมพระเกียรติ ร9 ตำบลตลาด อำเภอเมือง เทศบาลเมืองมหาสารคาม",
            "province": "Maha Sarakham",
            "district": "Mueang Maha Sarakham"
        },
        "location": {
            "lat": 16.1901757,
            "lng": 103.287906
        },
        "rating": {
            "count": 0,
            "sum": 0
        },
        "images": [
            "1550250726729.jpg",
            "1550250726765.jpg",
            "1550250726767.jpg",
            "1550250726808.jpg"
        ]
    },
    {
        "_id": "100",
        "name": "5th Avenue cafe มหาสารคาม",
        "category": "Food & Drink",
        "address": {
            "address": "131/7 ถนนเฉลิมพระเกียรติ ร9 ตำบลตลาด อำเภอเมือง เทศบาลเมืองมหาสารคาม",
            "province": "Maha Sarakham",
            "district": "Mueang Maha Sarakham"
        },
        "location": {
            "lat": 16.1901757,
            "lng": 103.287906
        },
        "rating": {
            "count": 0,
            "sum": 0
        },
        "images": [
            "1550250726729.jpg",
            "1550250726765.jpg",
            "1550250726767.jpg",
            "1550250726808.jpg"
        ]
    },
    {
        "_id": "101",
        "name": "5th Avenue cafe มหาสารคาม",
        "category": "Food & Drink",
        "address": {
            "address": "131/7 ถนนเฉลิมพระเกียรติ ร9 ตำบลตลาด อำเภอเมือง เทศบาลเมืองมหาสารคาม",
            "province": "Maha Sarakham",
            "district": "Mueang Maha Sarakham"
        },
        "location": {
            "lat": 16.1901757,
            "lng": 103.287906
        },
        "rating": {
            "count": 0,
            "sum": 0
        },
        "images": [
            "1550250726729.jpg",
            "1550250726765.jpg",
            "1550250726767.jpg",
            "1550250726808.jpg"
        ]
    },
    {
        "_id": "102",
        "name": "5th Avenue cafe มหาสารคาม",
        "category": "Food & Drink",
        "address": {
            "address": "131/7 ถนนเฉลิมพระเกียรติ ร9 ตำบลตลาด อำเภอเมือง เทศบาลเมืองมหาสารคาม",
            "province": "Maha Sarakham",
            "district": "Mueang Maha Sarakham"
        },
        "location": {
            "lat": 16.1901757,
            "lng": 103.287906
        },
        "rating": {
            "count": 0,
            "sum": 0
        },
        "images": [
            "1550250726729.jpg",
            "1550250726765.jpg",
            "1550250726767.jpg",
            "1550250726808.jpg"
        ]
    },
    {
        "_id": "103",
        "name": "5th Avenue cafe มหาสารคาม",
        "category": "Food & Drink",
        "address": {
            "address": "131/7 ถนนเฉลิมพระเกียรติ ร9 ตำบลตลาด อำเภอเมือง เทศบาลเมืองมหาสารคาม",
            "province": "Maha Sarakham",
            "district": "Mueang Maha Sarakham"
        },
        "location": {
            "lat": 16.1901757,
            "lng": 103.287906
        },
        "rating": {
            "count": 0,
            "sum": 0
        },
        "images": [
            "1550250726729.jpg",
            "1550250726765.jpg",
            "1550250726767.jpg",
            "1550250726808.jpg"
        ]
    }
]